[{
    "LastReportedPriceDate": "/Date(1467691200000-0400)/",
    "Hours": "24 hours daily",
    "AccessRestrictions": "Credit card at all times",
    "ID": 413,
    "Phone": "866-809-4869",
    "Status": "Active",
    "PSI": ["3600"],
    "Name": "Clean Energy \u2013 Will Rogers World Airport",
    "Zip": "73159",
    "LastReportedPrice": 1.94,
    "PaymentOptions": ["Visa", "Voyager", "Clean Energy Card", "Wright Express", "American Express", "MasterCard"],
    "FillType": "Quick",
    "Longitude": -97.6005346,
    "Latitude": 35.4062057,
    "City": "Oklahoma City",
    "State": "OK",
    "Address": "4424 Amelia Earhart Drive",
    "Directions": "At Terminal Drive"
}, {
    "LastReportedPriceDate": "/Date(1467086400000-0400)/",
    "Hours": "24 hours daily",
    "AccessRestrictions": "Credit card at all times",
    "ID": 733,
    "Phone": "866-206-9587",
    "Status": "Active",
    "PSI": ["3000"],
    "Name": "Oklahoma Natural Gas \u2013 Mustang Service Center",
    "Zip": "73064",
    "LastReportedPrice": 0.89,
    "PaymentOptions": ["Voyager", "Fuelman", "MasterCard", "Visa"],
    "FillType": "Both",
    "Longitude": -97.7117067,
    "Latitude": 35.3916464,
    "City": "Mustang",
    "State": "OK",
    "Address": "680 E. Highway 152",
    "Directions": "On Highway 4, go 5 miles south to Highway 152, 1 mile east on 152"
}, {
    "LastReportedPriceDate": "/Date(1439265600000-0400)/",
    "Hours": "24 hours daily",
    "AccessRestrictions": "Credit card at all times",
    "ID": 743,
    "Phone": "866-206-9587",
    "Status": "Active",
    "PSI": ["3000"],
    "Name": "Oklahoma Natural Gas \u2013 Southside Service Center",
    "Zip": "73129",
    "LastReportedPrice": 1.74,
    "PaymentOptions": ["Voyager", "Fuelman", "Clean Energy Card", "American Express", "MasterCard", "Visa"],
    "FillType": "Both",
    "Longitude": -97.501457,
    "Latitude": 35.406086,
    "City": "Oklahoma City",
    "State": "OK",
    "Address": "412 S.E. 59th Street",
    "Directions": ""
}, {
    "LastReportedPriceDate": "/Date(1453784400000-0500)/",
    "Hours": "24 hours daily; Unmanned station",
    "AccessRestrictions": "",
    "ID": 752,
    "Phone": "405-935-6475",
    "Status": "Active",
    "PSI": ["3600"],
    "Name": "OnCue Express",
    "Zip": "73118",
    "LastReportedPrice": 0.99,
    "PaymentOptions": ["Fuelman", "American Express", "MasterCard", "Visa"],
    "FillType": "Quick",
    "Longitude": -97.529454,
    "Latitude": 35.521077,
    "City": "Oklahoma City",
    "State": "OK",
    "Address": "4920 N. Western Avenue",
    "Directions": "N.W. 49th at Western Avenue"
}, {
    "LastReportedPriceDate": "/Date(1455253200000-0500)/",
    "Hours": "24 hours daily",
    "AccessRestrictions": "Credit card at all times",
    "ID": 756,
    "Phone": "405-330-6009",
    "Status": "Active",
    "PSI": [],
    "Name": "OnCue Express ",
    "Zip": "73034",
    "LastReportedPrice": 0.99,
    "PaymentOptions": ["Fuelman", "American Express", "MasterCard", "Visa"],
    "FillType": "Quick",
    "Longitude": -97.481951,
    "Latitude": 35.646194,
    "City": "Edmond",
    "State": "OK",
    "Address": "800 S. Broadway",
    "Directions": "N.E. corner of Ninth Street and Broadway"
}, {
    "LastReportedPriceDate": "/Date(1455253200000-0500)/",
    "Hours": "24 hours daily",
    "AccessRestrictions": "",
    "ID": 759,
    "Phone": "405-787-2255",
    "Status": "Active",
    "PSI": ["3600"],
    "Name": "OnCue Express",
    "Zip": "73127",
    "LastReportedPrice": 0.99,
    "PaymentOptions": ["Discover", "Fuelman", "American Express", "MasterCard", "Visa"],
    "FillType": "Quick",
    "Longitude": -97.619013,
    "Latitude": 35.4641542,
    "City": "Oklahoma City",
    "State": "OK",
    "Address": "5900 W. Reno",
    "Directions": ""
}, {
    "LastReportedPriceDate": "/Date(1465185600000-0400)/",
    "Hours": "24 hours daily",
    "AccessRestrictions": "Credit card at all times",
    "ID": 760,
    "Phone": "405-557-1170",
    "Status": "Active",
    "PSI": ["3600"],
    "Name": "OnCue Express",
    "Zip": "73118",
    "LastReportedPrice": 0.79,
    "PaymentOptions": ["Discover", "Fuelman", "American Express", "MasterCard", "Visa"],
    "FillType": "Quick",
    "Longitude": -97.511638,
    "Latitude": 35.494159,
    "City": "Oklahoma City",
    "State": "OK",
    "Address": "1 N.W. 23rd Street",
    "Directions": ""
}, {
    "LastReportedPriceDate": "/Date(1467691200000-0400)/",
    "Hours": "24 hours daily",
    "AccessRestrictions": "",
    "ID": 958,
    "Phone": "405-348-3835",
    "Status": "Active",
    "PSI": ["3600"],
    "Name": "Total Express",
    "Zip": "73013",
    "LastReportedPrice": 1.09,
    "PaymentOptions": ["Cash", "Check", "MasterCard", "Visa"],
    "FillType": "Quick",
    "Longitude": -97.638582,
    "Latitude": 35.6375746,
    "City": "Edmond",
    "State": "OK",
    "Address": "16401 N. Rockwell Avenue",
    "Directions": "N.W. 164th & Rockwell Avenue, Suite 100"
}, {
    "LastReportedPriceDate": "/Date(1456117200000-0500)/",
    "Hours": "24 hours daily",
    "AccessRestrictions": "",
    "ID": 1069,
    "Phone": "",
    "Status": "Active",
    "PSI": ["3600"],
    "Name": "OnCue Express",
    "Zip": "73115",
    "LastReportedPrice": 0.99,
    "PaymentOptions": ["Visa", "Discover", "Wright Express", "American Express", "MasterCard"],
    "FillType": "Quick",
    "Longitude": -97.426905,
    "Latitude": 35.434862,
    "City": "Del City",
    "State": "OK",
    "Address": "5500 S.E. 29th Street",
    "Directions": ""
}, {
    "LastReportedPriceDate": "/Date(1449896400000-0500)/",
    "Hours": "",
    "AccessRestrictions": "",
    "ID": 1101,
    "Phone": "405-942-7528",
    "Status": "Active",
    "PSI": ["3600"],
    "Name": "Conoco \u2013 Reno Mart",
    "Zip": "73107",
    "LastReportedPrice": 1.55,
    "PaymentOptions": [],
    "FillType": "Quick",
    "Longitude": -97.583278,
    "Latitude": 35.464549,
    "City": "Oklahoma City",
    "State": "OK",
    "Address": "3701 W. Reno Avenue #B",
    "Directions": ""
}, {
    "LastReportedPriceDate": "/Date(1467086400000-0400)/",
    "Hours": "24 hours daily",
    "AccessRestrictions": "",
    "ID": 1154,
    "Phone": "",
    "Status": "Active",
    "PSI": ["3600"],
    "Name": "Love's Travel Stop",
    "Zip": "73083",
    "LastReportedPrice": 1.24,
    "PaymentOptions": [],
    "FillType": "Slow",
    "Longitude": -97.4356,
    "Latitude": 35.593563,
    "City": "Oklahoma City",
    "State": "OK",
    "Address": "12225 N. Interstate 35",
    "Directions": ""
}, {
    "LastReportedPriceDate": "/Date(1453784400000-0500)/",
    "Hours": "24 hours daily",
    "AccessRestrictions": "",
    "ID": 1156,
    "Phone": "405-793-1328",
    "Status": "Active",
    "PSI": ["3600"],
    "Name": "7-Eleven",
    "Zip": "73160",
    "LastReportedPrice": 0.39,
    "PaymentOptions": [],
    "FillType": "Quick",
    "Longitude": -97.476746,
    "Latitude": 35.320893,
    "City": "Moore",
    "State": "OK",
    "Address": "1919 S. Eastern Avenue",
    "Directions": ""
}, {
    "LastReportedPriceDate": "/Date(1394510400000-0400)/",
    "Hours": "24 hours daily",
    "AccessRestrictions": "",
    "ID": 1184,
    "Phone": "",
    "Status": "Active",
    "PSI": ["3600"],
    "Name": "Love's Travel Stop",
    "Zip": "73169",
    "LastReportedPrice": 1.79,
    "PaymentOptions": [],
    "FillType": "Quick",
    "Longitude": -97.573333,
    "Latitude": 35.37711,
    "City": "Oklahoma City",
    "State": "OK",
    "Address": "3233 S.W. 89th Street",
    "Directions": ""
}, {
    "LastReportedPriceDate": "/Date(1465185600000-0400)/",
    "Hours": "24 hours daily",
    "AccessRestrictions": "",
    "ID": 1185,
    "Phone": "405-789-0087",
    "Status": "Active",
    "PSI": ["3600"],
    "Name": "Love's Travel Stop",
    "Zip": "73128",
    "LastReportedPrice": 1.29,
    "PaymentOptions": [],
    "FillType": "Quick",
    "Longitude": -97.688408,
    "Latitude": 35.457895,
    "City": "Oklahoma City",
    "State": "OK",
    "Address": "800 S. Morgan Road",
    "Directions": ""
}, {
    "LastReportedPriceDate": "/Date(1463025600000-0400)/",
    "Hours": "24 hours daily",
    "AccessRestrictions": "",
    "ID": 1329,
    "Phone": "",
    "Status": "Active",
    "PSI": ["3600"],
    "Name": "OnCue Express",
    "Zip": "73114",
    "LastReportedPrice": 0.99,
    "PaymentOptions": ["Cash", "Discover", "American Express", "MasterCard", "Visa"],
    "FillType": "Quick",
    "Longitude": -97.531503,
    "Latitude": 35.607869,
    "City": "Oklahoma City",
    "State": "OK",
    "Address": "13600 N. Western Avenue",
    "Directions": ""
}, {
    "LastReportedPriceDate": "/Date(1428379200000-0400)/",
    "Hours": "24 Hours Daily",
    "AccessRestrictions": "",
    "ID": 1364,
    "Phone": "405-297-3576",
    "Status": "Active",
    "PSI": ["3600"],
    "Name": "City of Oklahoma City - Solid Waste Management",
    "Zip": "73120",
    "LastReportedPrice": 1.69,
    "PaymentOptions": [],
    "FillType": "Quick",
    "Longitude": -97.585019,
    "Latitude": 35.604454,
    "City": "Oklahoma City",
    "State": "OK",
    "Address": "11501 N. Portland Ave",
    "Directions": ""
}, {
    "LastReportedPriceDate": "/Date(1456117200000-0500)/",
    "Hours": "24/7",
    "AccessRestrictions": "",
    "ID": 1542,
    "Phone": "",
    "Status": "Active",
    "PSI": ["3600"],
    "Name": "OnCue Express #116",
    "Zip": "73116",
    "LastReportedPrice": 0.99,
    "PaymentOptions": [],
    "FillType": "Quick",
    "Longitude": -97.58716,
    "Latitude": 35.536284,
    "City": "Oklahoma City",
    "State": "OK",
    "Address": "3901 NW Expressway",
    "Directions": ""
}, {
    "LastReportedPriceDate": "/Date(1456117200000-0500)/",
    "Hours": "24/7 access",
    "AccessRestrictions": "",
    "ID": 1664,
    "Phone": "405-471-7636",
    "Status": "Active",
    "PSI": [],
    "Name": "OnCue Express",
    "Zip": "73034",
    "LastReportedPrice": 0.99,
    "PaymentOptions": ["Discover", "American Express", "MasterCard", "Visa"],
    "FillType": "Quick",
    "Longitude": -97.496643,
    "Latitude": 35.62445,
    "City": "Edmond",
    "State": "OK",
    "Address": "3201 S Kelly Ave",
    "Directions": ""
}]
